,City,Country,Latitude,Longitude,Date,Max Temperature,Humidity,Cloud Coverage,Wind Speed
0,mataura,NZ,-46.1927,168.8643,1643876434,55.47,66,100,4.54
1,hovd,MN,48.0056,91.6419,1643876435,1.2,92,90,3.62
2,tiksi,RU,71.6872,128.8694,1643876436,-5.15,96,95,7.27
3,saskylakh,RU,71.9167,114.0833,1643876436,-33.11,100,16,2.1
4,albany,US,42.6001,-73.9662,1643876398,44.47,91,100,2.8
5,port alfred,ZA,-33.5906,26.891,1643876437,73.44,86,99,10.92
6,baykit,RU,61.67,96.37,1643876438,16.48,95,100,3.76
7,goulburn,AU,-34.75,149.7167,1643876439,65.16,71,64,14.56
8,sakata,JP,38.9167,139.855,1643876439,33.98,86,75,14.97
9,hithadhoo,MV,-0.6,73.0833,1643876440,81.9,69,51,1.86
10,hermanus,ZA,-34.4187,19.2345,1643876441,63.9,80,99,15.05
11,arteaga,MX,18.4667,-102.4167,1643876441,54.61,92,5,1.9
12,viseu,PT,40.661,-7.9097,1643876442,43.68,79,100,1.25
13,punta arenas,CL,-53.15,-70.9167,1643876443,42.91,65,75,6.91
14,vaini,TO,-21.2,-175.2,1643876444,78.96,94,40,2.3
15,rikitea,PF,-23.1203,-134.9692,1643876433,77.52,77,100,10.45
16,lodwar,KE,3.1191,35.5973,1643876444,91.36,28,100,24.61
17,mikun,RU,62.3547,50.0771,1643876445,21.31,94,100,6.17
18,sosva,RU,59.1766,61.8558,1643876446,24.37,95,100,6.93
19,bonavista,CA,48.6499,-53.1147,1643876447,31.12,75,8,20.94
20,carnarvon,AU,-24.8667,113.6333,1643876447,84.85,62,0,19.95
21,hobart,AU,-42.8794,147.3294,1643876412,63.01,59,75,1.99
22,thompson,CA,55.7435,-97.8558,1643876448,-21.84,69,0,9.22
23,arraial do cabo,BR,-22.9661,-42.0278,1643876449,73.36,88,75,1.14
24,kavieng,PG,-2.5744,150.7967,1643876450,80.28,79,100,12.26
25,jamestown,US,42.097,-79.2353,1643876450,37.29,72,100,3.0
26,ripoll,ES,42.2006,2.1903,1643876451,55.6,57,46,1.01
27,cayenne,GF,4.9333,-52.3333,1643876452,75.09,91,75,6.91
28,tinskoy,RU,56.1525,96.9161,1643876452,14.54,85,96,4.41
29,kahului,US,20.8947,-156.47,1643876453,72.84,76,40,5.75
30,mar del plata,AR,-38.0023,-57.5575,1643876297,72.09,85,100,1.99
31,grindavik,IS,63.8424,-22.4338,1643876454,21.67,86,20,9.22
32,ribeira grande,PT,38.5167,-28.7,1643876455,57.6,77,20,9.22
33,penzance,GB,50.1186,-5.5371,1643876455,48.27,100,40,12.66
34,waingapu,ID,-9.6567,120.2641,1643876441,86.07,67,66,15.26
35,avarua,CK,-21.2078,-159.775,1643876456,78.85,89,40,12.66
36,bluff,NZ,-46.6,168.3333,1643876457,55.8,61,100,14.83
37,bethel,US,41.3712,-73.414,1643876458,39.65,91,100,0.0
38,balakhta,RU,55.38,91.6,1643876458,5.27,87,37,1.34
39,ushuaia,AR,-54.8,-68.3,1643876459,40.66,60,40,13.8
40,isangel,VU,-19.55,169.2667,1643876317,80.11,85,100,4.61
41,grand gaube,MU,-20.0064,57.6608,1643876263,81.37,84,100,18.99
42,tuktoyaktuk,CA,69.4541,-133.0374,1643876460,-13.59,97,100,10.51
43,cape town,ZA,-33.9258,18.4232,1643876236,64.89,91,100,5.99
44,cap malheureux,MU,-19.9842,57.6142,1643876461,80.47,84,100,18.01
45,severo-kurilsk,RU,50.6789,156.125,1643876462,29.82,82,100,11.77
46,sao joaquim,BR,-28.2939,-49.9317,1643876462,55.0,99,26,3.38
47,nome,US,64.5011,-165.4064,1643876463,7.16,56,0,29.93
48,barrow,US,71.2906,-156.7887,1643876464,-23.78,76,75,6.91
49,mahanoro,MG,-19.9,48.8,1643876464,73.47,88,100,10.71
50,atuona,PF,-9.8,-139.0333,1643876465,78.6,76,96,17.85
51,yellowknife,CA,62.456,-114.3525,1643876466,-30.59,80,0,10.36
52,busselton,AU,-33.65,115.3333,1643876467,99.05,30,38,7.76
53,marsh harbour,BS,26.5412,-77.0636,1643876467,71.85,69,49,16.58
54,castro,BR,-24.7911,-50.0119,1643876468,60.48,99,74,4.41
55,prieska,ZA,-29.6641,22.7474,1643876469,70.14,70,100,14.94
56,altay,CN,47.8667,88.1167,1643876469,14.18,82,7,1.23
57,abrau-dyurso,RU,44.69,37.59,1643876470,52.48,84,100,9.19
58,boende,CD,-0.2167,20.8667,1643876471,74.91,56,100,2.08
59,victoria,HK,22.2855,114.1577,1643876252,60.24,81,100,7.0
60,cidreira,BR,-30.1811,-50.2056,1643876260,74.32,92,21,15.77
61,yaan,NG,7.3833,8.5667,1643876472,81.32,11,33,9.71
62,cabo san lucas,MX,22.8909,-109.9124,1643876473,69.51,69,100,5.97
63,hilo,US,19.7297,-155.09,1643876473,72.39,89,100,4.61
64,bathsheba,BB,13.2167,-59.5167,1643876474,75.81,78,20,13.8
65,port moresby,PG,-9.4431,147.1797,1643876475,85.42,54,40,13.8
66,kijang,KR,35.2442,129.2139,1643876475,44.33,24,1,9.91
67,buraydah,SA,26.326,43.975,1643876476,63.05,22,0,18.19
68,kaitangata,NZ,-46.2817,169.8464,1643876477,57.92,74,100,2.08
69,tianpeng,CN,30.9866,103.9393,1643876478,46.87,57,100,3.0
70,laguna,US,38.421,-121.4238,1643876394,52.3,58,0,3.0
71,jhunjhunun,IN,28.1307,75.4014,1643876478,67.95,38,0,19.1
72,ilulissat,GL,69.2167,-51.1,1643876479,-3.78,65,100,9.64
73,saint-philippe,RE,-21.3585,55.7679,1643876480,80.15,96,100,34.47
74,flinders,AU,-34.5833,150.8552,1643876481,70.21,63,74,17.92
75,tamiahua,MX,21.2667,-97.45,1643876481,70.63,95,20,0.51
76,yeppoon,AU,-23.1333,150.7333,1643876482,82.18,85,100,11.12
77,hirara,JP,24.8,125.2833,1643876483,67.86,94,75,18.41
78,richards bay,ZA,-28.783,32.0377,1643876484,90.28,52,9,9.44
79,herbertpur,IN,30.45,77.7333,1643876484,51.21,83,100,4.74
80,saint pete beach,US,27.7253,-82.7412,1643876485,65.19,80,0,4.0
81,sola,VU,-13.8833,167.55,1643876486,81.84,78,100,18.03
82,angermunde,DE,53.015,13.9992,1643876486,40.01,88,100,8.77
83,kupang,ID,-10.1667,123.5833,1643876487,80.65,85,95,12.68
84,bambous virieux,MU,-20.3428,57.7575,1643876488,80.22,94,75,26.46
85,prince rupert,CA,54.3161,-130.3201,1643876422,39.29,100,100,4.61
86,uige,AO,-7.6087,15.0613,1643876489,71.62,73,75,0.0
87,georgetown,MY,5.4112,100.3354,1643876489,88.95,71,40,1.01
88,micheweni,TZ,-4.9667,39.8333,1643876490,82.6,74,98,10.76
89,bengkulu,ID,-3.8004,102.2655,1643876491,85.62,62,83,5.93
90,novomichurinsk,RU,54.0384,39.7479,1643876492,20.12,95,86,2.48
91,jumla,NP,29.2747,82.1838,1643876492,44.17,63,99,7.76
92,sao joao da barra,BR,-21.6403,-41.0511,1643876414,72.16,95,100,5.82
93,provideniya,RU,64.3833,-173.3,1643876356,2.23,69,98,24.85
94,ancud,CL,-41.8697,-73.8203,1643876493,54.93,92,72,2.26
95,winneba,GH,5.3511,-0.6231,1643876194,81.07,75,81,3.74
96,san juan,AR,-31.5375,-68.5364,1643876494,77.13,42,9,3.67
97,lakes entrance,AU,-37.8811,147.981,1643876495,63.16,59,9,12.95
98,lebu,CL,-37.6167,-73.65,1643876496,56.8,95,15,8.81
99,iqaluit,CA,63.7506,-68.5145,1643876496,4.73,71,100,3.0
100,komsomolskiy,UZ,40.4272,71.7189,1643876316,45.82,57,8,2.3
101,yulara,AU,-25.2406,130.9889,1643876497,82.24,28,100,14.97
102,jalu,LY,29.0331,21.5482,1643876498,54.3,66,5,22.17
103,wladyslawowo,PL,54.7909,18.4009,1643876498,35.94,92,90,13.38
104,longyearbyen,SJ,78.2186,15.6401,1643876486,19.24,45,0,4.61
105,taoudenni,ML,22.6783,-3.9836,1643876499,59.14,32,16,13.4
106,acapulco,MX,16.8634,-99.8901,1643876470,71.42,88,0,2.3
107,puerto ayora,EC,-0.7393,-90.3518,1643876500,74.55,94,17,3.0
108,antsohihy,MG,-14.8796,47.9875,1643876501,88.02,60,95,2.86
109,coquimbo,CL,-29.9533,-71.3436,1643876282,60.53,88,0,4.61
110,shirvan,AZ,39.9509,48.8994,1643876502,54.82,36,60,13.11
111,druzhba,UA,52.0428,33.9453,1643876502,27.5,91,93,6.64
112,karratha,AU,-20.7377,116.8463,1643876503,89.44,53,84,18.81
113,zhaoqing,CN,23.0512,112.4597,1643876504,55.63,74,91,4.12
114,lazaro cardenas,MX,17.9583,-102.2,1643876504,69.01,85,7,4.56
115,mao,ES,39.8885,4.2658,1643876505,52.36,82,0,3.44
116,picayune,US,30.5255,-89.6795,1643876506,64.26,88,100,5.01
117,nyimba,ZM,-14.5566,30.8149,1643876507,78.24,76,69,6.33
118,rypefjord,NO,70.6333,23.6667,1643876507,16.27,79,0,6.91
119,khatanga,RU,71.9667,102.5,1643876508,-33.7,99,24,1.12
120,shaunavon,CA,49.6501,-108.4181,1643876509,-7.82,93,70,14.7
121,picota,PE,-6.9197,-76.3304,1643876509,70.43,84,100,0.43
122,mercedes,AR,-34.6515,-59.4307,1643876510,68.9,87,100,2.48
123,kattivakkam,IN,13.2167,80.3167,1643876511,87.89,64,5,8.88
124,san quintin,MX,30.4833,-115.95,1643876512,55.42,61,0,7.36
125,kapaa,US,22.0752,-159.319,1643876512,73.38,72,0,5.75
126,severodvinsk,RU,64.5635,39.8302,1643876513,10.51,96,97,1.59
127,nola,IT,40.922,14.5329,1643876514,53.92,51,5,8.55
128,airai,TL,-8.9266,125.4092,1643876514,68.63,75,75,3.85
129,calabozo,VE,8.9242,-67.4293,1643876515,77.14,65,5,8.32
130,marystown,CA,47.1666,-55.1483,1643876516,31.86,100,23,1.99
131,tasiilaq,GL,65.6145,-37.6368,1643876517,10.56,60,55,7.72
132,talnakh,RU,69.4865,88.3972,1643876517,-9.38,98,98,6.91
133,eureka,US,40.8021,-124.1637,1643876518,48.2,91,74,1.01
134,celestun,MX,20.8667,-90.4,1643876519,73.44,82,0,14.92
135,eyl,SO,7.9803,49.8164,1643876520,82.65,50,22,22.5
136,pisco,PE,-13.7,-76.2167,1643876520,66.25,82,0,3.44
137,tazovskiy,RU,67.4667,78.7,1643876521,-11.42,97,50,12.57
138,cooma,AU,-36.2333,149.1333,1643876522,55.04,59,75,14.67
139,sur,OM,22.5667,59.5289,1643876522,75.58,41,0,19.44
140,dunedin,NZ,-45.8742,170.5036,1643876500,57.79,82,100,8.99
141,ukiah,US,39.1502,-123.2078,1643876523,47.84,86,0,0.0
142,faanui,PF,-16.4833,-151.75,1643876524,80.71,77,14,19.86
143,tulun,RU,54.5611,100.5792,1643876525,8.74,87,96,1.57
144,nakusp,CA,50.2499,-117.8023,1643876526,20.48,93,100,2.3
145,riwaka,NZ,-41.0833,173.0,1643876526,69.01,97,100,6.76
146,port-gentil,GA,-0.7193,8.7815,1643876527,80.56,89,75,2.3
147,dudinka,RU,69.4058,86.1778,1643876528,-15.57,100,100,5.48
148,bermejillo,MX,25.8833,-103.6167,1643876529,62.04,43,100,6.85
149,davila,PH,18.4726,120.5763,1643876529,82.38,74,1,5.1
150,big spring,US,32.2504,-101.4787,1643876530,18.28,84,100,7.0
151,sitka,US,57.0531,-135.33,1643876531,35.49,100,100,4.61
152,clyde river,CA,70.4692,-68.5914,1643876531,-14.57,76,100,21.85
153,japura,ID,-0.3167,102.35,1643876532,82.67,79,100,2.48
154,qaanaaq,GL,77.484,-69.3632,1643876533,-12.82,74,99,8.12
155,dehloran,IR,32.6941,47.2679,1643876534,63.79,25,86,7.54
156,dauphin,CA,51.1494,-100.0502,1643876534,-21.86,57,0,6.91
157,huron,US,41.1501,-82.5499,1643876535,28.11,93,100,14.2
158,colon,PA,9.3592,-79.9014,1643876536,78.21,86,28,6.91
159,tromso,NO,69.6496,18.957,1643876536,18.37,79,0,3.44
160,maningrida,AU,-12.0667,134.2667,1643876537,82.71,77,94,12.88
161,chuy,UY,-33.6971,-53.4616,1643876538,68.79,95,36,7.47
162,sisimiut,GL,66.9395,-53.6735,1643876539,9.3,60,100,20.2
163,muriwai beach,NZ,-36.8167,174.45,1643876427,70.43,82,93,12.33
164,moerai,PF,-22.4333,-151.3333,1643876539,79.83,75,70,16.62
165,norman wells,CA,65.282,-126.8329,1643876540,-36.36,67,40,4.61
166,methoni,GR,36.8197,21.7049,1643876541,48.06,69,100,9.26
167,mpanda,TZ,-6.3655,31.0409,1643876541,69.33,88,100,2.01
168,ponta do sol,PT,32.6667,-17.1,1643876542,67.12,57,100,14.74
169,tra vinh,VN,9.9347,106.3453,1643876359,88.63,50,13,13.33
170,am timan,TD,11.0297,20.2827,1643876543,78.01,10,4,9.8
171,marzuq,YE,14.4,46.4667,1643876544,72.86,19,6,7.07
172,bredasdorp,ZA,-34.5322,20.0403,1643876545,67.32,73,75,21.85
173,bonthe,SL,7.5264,-12.505,1643876545,75.63,87,35,4.61
174,aklavik,CA,68.2191,-135.0107,1643876546,-22.97,98,100,4.85
175,balkanabat,TM,39.5108,54.3671,1643876547,61.56,20,91,8.46
176,chokurdakh,RU,70.6333,147.9167,1643876547,-26.54,97,84,5.73
177,kenai,US,60.5544,-151.2583,1643876548,21.15,81,75,10.36
178,mayumba,GA,-3.432,10.6554,1643876549,75.6,91,100,1.01
179,olinda,BR,-8.0089,-34.8553,1643876550,82.13,74,20,5.75
180,kysyl-syr,RU,63.8986,122.7617,1643876550,-20.87,100,95,3.0
181,bubaque,GW,11.2833,-15.8333,1643876551,76.98,79,21,5.86
182,batagay-alyta,RU,67.8006,130.4114,1643876552,-22.65,95,87,3.09
183,mingguang,CN,32.7802,117.9638,1643876552,43.41,48,100,5.41
184,olga,RU,43.7444,135.2892,1643876553,13.69,54,15,14.63
185,butaritari,KI,3.0707,172.7902,1643876554,82.11,77,100,13.53
186,wanning,CN,18.8003,110.3967,1643876555,68.29,77,66,14.09
187,segezha,RU,63.7415,34.3222,1643876555,7.03,96,96,3.91
188,new norfolk,AU,-42.7826,147.0587,1643876556,62.65,49,71,3.0
189,auki,SB,-8.7676,160.7034,1643876557,77.99,89,100,7.23
190,santa cruz,BO,-17.8,-63.1667,1643876557,72.86,94,20,6.91
191,hambantota,LK,6.1241,81.1185,1643876558,85.35,52,4,8.16
192,fortuna,US,40.5982,-124.1573,1643876559,47.93,92,100,1.01
193,shiyan,CN,32.6475,110.7781,1643876560,47.07,34,68,5.01
194,vao,NC,-22.6667,167.4833,1643876560,79.88,80,0,6.62
195,caravelas,BR,-17.7125,-39.2481,1643876508,73.44,92,97,2.17
196,lorengau,PG,-2.0226,147.2712,1643876561,80.13,79,100,7.72
197,fairbanks,US,64.8378,-147.7164,1643876562,-14.8,68,0,5.75
198,rincon,US,32.296,-81.2354,1643876563,59.86,98,75,4.61
199,kibre mengist,ET,5.8833,38.9833,1643876563,77.54,29,100,6.62
200,zhangjiakou,CN,40.81,114.8794,1643876564,19.56,40,16,11.52
201,makubetsu,JP,45.3714,141.8211,1643876565,22.71,74,75,17.27
202,ussel,FR,45.55,2.3167,1643876565,32.09,57,100,1.77
203,kutum,SD,14.2,24.6667,1643876566,71.76,14,2,10.54
204,port lincoln,AU,-34.7333,135.8667,1643876567,65.64,65,2,19.53
205,san antonio,US,29.4241,-98.4936,1643876392,39.36,91,100,4.0
206,haines junction,CA,60.7522,-137.5108,1643876568,-20.25,76,100,1.14
207,portland,US,45.5234,-122.6762,1643876003,44.91,95,100,1.01
208,ketchikan,US,55.3422,-131.6461,1643876568,39.18,93,100,5.75
209,klaksvik,FO,62.2266,-6.589,1643876569,47.32,91,100,41.45
210,arman,RU,59.7,150.1667,1643876570,4.86,78,100,11.61
211,caiaponia,BR,-16.9567,-51.8103,1643876571,67.37,95,99,2.51
212,hanover,DE,52.3705,9.7332,1643876571,46.51,95,75,6.91
213,alofi,NU,-19.0595,-169.9187,1643876572,76.89,83,55,5.75
214,trincomalee,LK,8.5711,81.2335,1643876573,78.93,62,7,8.08
215,esperance,AU,-33.8667,121.9,1643876573,75.83,52,8,24.58
216,marrakesh,MA,31.6315,-8.0083,1643876574,51.87,46,11,2.3
217,morropon,PE,-5.1822,-79.9689,1643876575,71.73,70,50,1.83
218,guasdualito,VE,7.2424,-70.7324,1643876576,71.6,83,8,1.14
219,elko,US,41.0002,-115.5012,1643876576,21.06,54,83,3.83
220,punto fijo,VE,11.6956,-70.1996,1643876577,76.6,85,11,21.21
221,tepusteca,HN,15.4167,-86.3167,1643876578,61.88,88,0,4.05
222,kudahuvadhoo,MV,2.6708,72.8944,1643876579,82.45,70,0,8.39
223,nikolskoye,RU,59.7035,30.7861,1643876579,19.29,96,93,1.23
224,codrington,AU,-38.2667,141.9667,1643876580,60.91,60,72,16.64
225,camacha,PT,33.0833,-16.3333,1643876581,63.54,88,40,11.5
226,san patricio,US,28.017,-97.5169,1643876581,48.18,85,100,19.24
227,cururupu,BR,-1.8283,-44.8683,1643876582,75.69,91,100,2.57
228,najran,SA,17.4924,44.1277,1643876583,68.65,25,100,6.08
229,torrington,US,41.8007,-73.1212,1643876584,40.21,96,100,6.58
230,kapoeta,SS,4.7717,33.5903,1643876584,86.72,34,100,11.65
231,cockburn town,TC,21.4612,-71.1419,1643876585,74.17,76,72,19.66
232,dikson,RU,73.5069,80.5464,1643876586,-10.75,98,93,10.87
233,rio grande,BR,-32.035,-52.0986,1643876587,75.31,86,6,14.29
234,ishigaki,JP,24.3448,124.1572,1643876587,68.13,94,75,19.57
235,tautira,PF,-17.7333,-149.15,1643876588,80.62,78,33,20.04
236,teruel,ES,40.6667,-0.6667,1643876589,40.78,19,60,5.82
237,tanout,NE,14.9709,8.8879,1643876589,59.65,17,5,22.1
238,port blair,IN,11.6667,92.75,1643876590,84.24,65,20,8.05
239,evans,US,33.5337,-82.1307,1643876591,58.23,90,40,3.0
240,murgab,TM,37.4966,61.9714,1643876592,58.87,41,0,16.11
241,te anau,NZ,-45.4167,167.7167,1643876592,56.53,84,100,3.56
242,anadyr,RU,64.75,177.4833,1643876593,12.7,67,55,38.03
243,cherskiy,RU,68.75,161.3,1643876594,-21.87,89,92,0.36
244,puerto narino,CO,-3.7703,-70.3831,1643876595,73.35,98,93,1.88
245,faya,SA,18.3851,42.4509,1643876595,68.11,43,96,4.45
246,nemuro,JP,43.3236,145.575,1643876596,23.43,76,91,8.48
247,kavaratti,IN,10.5669,72.642,1643876390,80.1,69,19,7.09
248,katobu,ID,-4.9408,122.5276,1643876597,84.38,64,100,6.96
249,tura,IN,25.5198,90.2201,1643876598,73.54,35,78,1.03
250,lufilufi,WS,-13.8745,-171.5986,1643876598,74.98,74,100,13.78
251,monrovia,LR,6.3005,-10.7969,1643876599,73.17,85,61,3.56
252,oussouye,SN,12.485,-16.5469,1643876600,73.49,88,1,4.59
253,kragero,NO,58.8693,9.4149,1643876344,29.44,97,100,11.52
254,egvekinot,RU,66.3167,-179.1667,1643876601,-10.79,78,3,18.03
255,charlottesville,US,38.0293,-78.4767,1643876407,43.21,90,100,5.01
256,mopipi,BW,-21.1833,24.8833,1643876602,84.9,47,0,10.85
257,chlorakas,CY,34.8042,32.4083,1643876602,63.48,58,20,16.11
258,charters towers,AU,-20.1,146.2667,1643876603,79.07,85,100,9.53
259,oistins,BB,13.0667,-59.5333,1643876604,75.29,78,20,13.8
260,ternate,ID,0.8,127.4,1643876604,81.73,76,99,4.09
261,svetlogorsk,BY,52.6333,29.7333,1643876605,24.66,95,100,12.59
262,qingyuan,CN,23.7,113.0333,1643876606,51.78,77,99,5.91
263,homer,US,59.6425,-151.5483,1643876607,32.04,80,75,4.61
264,sao filipe,CV,14.8961,-24.4956,1643876607,73.38,74,0,10.49
265,genhe,CN,50.7833,121.5167,1643876608,1.51,74,61,6.98
266,bonoua,CI,5.2741,-3.595,1643876609,82.02,71,36,4.9
267,ahome,MX,25.9167,-109.1833,1643876609,54.36,78,16,3.24
268,pevek,RU,69.7008,170.3133,1643876610,-7.96,76,0,4.32
269,koyelga,RU,54.6522,60.9049,1643876611,26.17,93,100,12.5
270,atar,MR,20.5169,-13.0499,1643876612,66.2,21,0,7.83
271,torbay,CA,47.6666,-52.7314,1643876612,28.58,84,75,19.57
272,nanortalik,GL,60.1432,-45.2371,1643876613,26.08,88,100,5.35
273,camapua,BR,-19.5314,-54.0439,1643876614,70.47,97,100,3.06
274,klyuchi,RU,52.2667,79.1667,1643876614,15.21,88,96,3.89
275,nador,MA,35.174,-2.9287,1643876399,53.85,82,0,3.44
276,luganville,VU,-15.5333,167.1667,1643876615,80.73,83,100,2.35
277,mortka,RU,59.3322,66.0214,1643876616,21.47,92,97,7.2
278,nouadhibou,MR,20.931,-17.0347,1643876617,64.38,55,4,11.5
279,aasiaat,GL,68.7098,-52.8699,1643876617,-1.75,75,100,18.63
280,los llanos de aridane,ES,28.6585,-17.9182,1643876618,69.55,74,0,7.0
281,qasigiannguit,GL,68.8193,-51.1922,1643876619,-2.22,67,100,8.52
282,okha,RU,53.5739,142.9478,1643876620,5.11,93,100,24.2
283,saint george,US,37.1041,-113.5841,1643876620,32.25,33,0,1.99
284,rocha,UY,-34.4833,-54.3333,1643876621,66.09,98,100,5.88
285,muravlenko,RU,63.7898,74.523,1643876577,21.06,95,100,13.02
286,sovetskiy,RU,61.3614,63.5842,1643876362,19.36,93,100,7.85
287,sainte-suzanne,RE,-20.9061,55.6089,1643876622,80.78,93,100,42.57
288,petropavlovsk-kamchatskiy,RU,53.0452,158.6483,1643876623,27.19,69,75,4.47
289,souillac,MU,-20.5167,57.5167,1643876624,80.37,94,75,26.46
290,meulaboh,ID,4.1363,96.1285,1643876625,85.17,66,79,9.06
291,santa isabel do rio negro,BR,-0.4139,-65.0192,1643876625,72.32,99,100,1.43
292,ola,RU,59.5833,151.2833,1643876626,2.98,78,99,12.17
293,muskegon,US,43.3,-86.1334,1643876627,20.1,64,75,9.22
294,cabedelo,BR,-6.9811,-34.8339,1643876628,77.67,77,94,9.8
295,kamaishi,JP,39.2667,141.8833,1643876628,29.35,64,45,12.39
296,shache,CN,38.4167,77.2406,1643876629,35.71,28,100,3.83
297,matamoros,MX,25.5333,-103.25,1643876630,62.11,36,100,7.52
298,santa fe,AR,-31.6333,-60.7,1643876630,75.02,80,86,3.0
299,plouzane,FR,48.3833,-4.6167,1643876631,48.38,100,75,6.91
300,pangnirtung,CA,66.1451,-65.7125,1643876632,5.99,96,100,2.73
301,kodiak,US,57.79,-152.4072,1643876633,38.71,87,100,9.22
302,urucui,BR,-7.2294,-44.5561,1643876633,74.23,78,98,1.28
303,mmathubudukwane,BW,-24.6,26.4333,1643876634,86.86,41,0,8.41
304,faizpur,IN,21.1667,75.85,1643876635,86.72,18,3,16.11
305,tabou,CI,4.423,-7.3528,1643876635,77.25,83,20,3.67
306,kollegal,IN,12.15,77.1167,1643876636,87.19,33,8,1.16
307,hervey bay,AU,-25.2986,152.8535,1643876637,80.04,94,99,11.56
308,vila,PT,42.0304,-8.1588,1643876638,40.33,75,100,3.69
309,thinadhoo,MV,0.5333,72.9333,1643876638,82.49,69,5,4.76
310,ugoofaaru,MV,5.6667,73.0,1643876607,81.54,70,22,4.85
311,san jeronimo,PE,-11.9472,-75.2829,1643876639,49.84,80,91,1.57
312,mahebourg,MU,-20.4081,57.7,1643876640,80.26,94,75,26.46
313,jaru,BR,-10.4389,-62.4664,1643876641,70.61,97,100,1.83
314,kamen-rybolov,RU,44.7481,132.0403,1643876641,7.88,81,94,4.25
315,banda aceh,ID,5.5577,95.3222,1643876409,85.68,64,42,15.17
316,belmonte,BR,-15.8631,-38.8828,1643876642,73.9,83,100,1.1
317,east london,ZA,-33.0153,27.9116,1643876530,76.14,94,20,13.8
318,ambon,ID,-3.6954,128.1814,1643876643,89.74,58,40,10.36
319,naze,JP,28.3667,129.4833,1643876493,54.52,83,100,21.18
320,husavik,IS,66.0449,-17.3389,1643876644,10.31,91,100,8.77
321,emerald,AU,-23.5333,148.1667,1643876607,77.14,88,100,8.05
322,altamont,US,42.2068,-121.7372,1643876645,28.78,86,0,0.0
323,renqiu,CN,38.6989,116.0936,1643876645,36.97,24,5,7.11
324,san angelo,US,31.4638,-100.437,1643876646,23.22,85,100,5.01
325,port elizabeth,ZA,-33.918,25.5701,1643876647,75.49,69,100,16.11
326,olafsvik,IS,64.8945,-23.7142,1643876648,29.17,70,86,15.77
327,ahipara,NZ,-35.1667,173.1667,1643876648,68.47,89,76,11.1
328,monster,NL,52.0258,4.175,1643876649,46.98,82,75,8.01
329,watertown,US,42.3709,-71.1828,1643876650,41.0,93,100,1.99
330,sechura,PE,-5.5569,-80.8222,1643876651,70.41,79,78,10.54
331,yadgir,IN,16.7667,77.1333,1643876651,90.14,26,85,10.2
332,bellevue,US,47.6104,-122.2007,1643876357,45.21,89,100,3.0
333,obidos,BR,-1.9175,-55.5181,1643876652,72.18,92,100,2.75
334,lagoa,PT,39.05,-27.9833,1643876653,57.34,74,9,9.86
335,kem,RU,64.9555,34.5793,1643876653,13.62,96,99,4.54
336,los zacatones,MX,22.95,-102.05,1643876654,52.65,37,0,13.35
337,camana,PE,-16.6228,-72.7111,1643876655,69.98,86,85,8.05
338,basco,PH,20.4487,121.9702,1643876656,76.08,75,99,10.76
339,young,UY,-32.6833,-57.6333,1643876656,72.23,45,57,7.85
340,pozzallo,IT,36.7305,14.8499,1643876657,55.2,58,0,4.72
341,ocara,BR,-4.4908,-38.5967,1643876658,81.0,99,88,2.71
342,srivardhan,IN,18.0333,73.0167,1643876659,79.12,50,6,10.49
343,upernavik,GL,72.7868,-56.1549,1643876659,-8.21,63,100,7.99
344,lompoc,US,34.6391,-120.4579,1643876660,50.31,61,0,3.44
345,soyo,AO,-6.1349,12.3689,1643876661,78.85,69,100,5.5
346,saint anthony,US,45.0205,-93.218,1643876662,-1.75,66,100,3.0
347,mangaldai,IN,26.4333,92.0333,1643876662,67.91,38,67,7.72
348,dingle,PH,10.9995,122.6711,1643876659,81.79,75,100,13.2
349,thoen,TH,17.6129,99.2161,1643876663,89.56,21,5,3.44
350,miyako,JP,39.6367,141.9525,1643876664,31.86,59,35,10.33
351,taitung,TW,22.7583,121.1444,1643876665,71.87,83,75,9.22
352,teknaf,BD,20.8624,92.3058,1643876665,78.58,38,0,10.94
353,biltine,TD,14.5333,20.9167,1643876666,71.24,10,0,11.74
354,verkhnyaya inta,RU,65.9811,60.3094,1643876667,13.69,89,88,5.23
355,warri,NG,5.5167,5.75,1643876668,82.85,68,33,3.04
356,kasungu,MW,-13.0333,33.4833,1643876668,78.51,62,16,4.65
357,mezen,RU,65.8522,44.24,1643876669,8.4,97,92,2.42
358,tabas,IR,33.5959,56.9244,1643876670,54.41,27,0,1.32
359,wenling,CN,28.3669,121.36,1643876670,43.92,88,100,12.46
360,marathon,US,44.9,-89.7668,1643876671,3.18,67,0,9.22
361,khash,IR,28.2211,61.2158,1643876672,55.89,17,0,4.99
362,namibe,AO,-15.1961,12.1522,1643876386,75.38,59,8,7.47
363,vidim,RU,56.4088,103.1106,1643876673,9.79,88,89,2.93
364,luderitz,NA,-26.6481,15.1594,1643876434,71.11,70,0,4.34
365,miramar,US,25.9873,-80.2323,1643876483,73.42,76,0,10.36
366,vershino-darasunskiy,RU,52.35,115.5167,1643876673,-0.65,78,9,4.09
367,chebarkul,RU,54.9749,60.3633,1643876674,25.45,93,100,10.76
368,kismayo,SO,-0.3582,42.5454,1643876675,85.3,64,92,16.49
369,saint-pierre,RE,-21.3393,55.4781,1643876676,80.24,94,75,39.12
370,rio gallegos,AR,-51.6226,-69.2181,1643876676,46.45,71,75,8.05
371,lewistown,US,40.5992,-77.5714,1643876677,41.09,100,100,0.0
372,betare oya,CM,5.6,14.0833,1643876678,80.42,17,8,4.36
373,ondarroa,ES,43.3167,-2.4167,1643876678,43.93,71,93,7.81
374,gat,IL,31.61,34.7642,1643876642,67.41,42,0,12.33
375,quzhou,CN,28.9594,118.8686,1643876679,36.95,100,100,2.33
376,bozhou,CN,33.8772,115.7703,1643876680,44.85,31,100,4.97
377,tual,ID,-5.6667,132.75,1643876681,83.48,71,100,12.33
378,urumqi,CN,43.801,87.6005,1643876524,7.75,85,31,4.47
379,ixtapa,MX,20.7,-105.2,1643876682,65.23,90,1,3.0
380,sorland,NO,67.667,12.6934,1643876682,26.46,62,99,13.69
381,lasa,IT,46.6166,10.7002,1643876683,40.46,87,63,6.08
382,phalodi,IN,27.1333,72.3667,1643876684,70.79,30,0,19.62
383,henties bay,NA,-22.116,14.2845,1643876684,73.85,70,0,3.85
384,yenagoa,NG,4.9247,6.2642,1643876685,83.05,70,21,1.86
385,kieta,PG,-6.2167,155.6333,1643876686,80.65,86,100,12.66
386,palora,EC,-1.7,-77.9333,1643876687,63.63,92,58,3.98
387,vila franca do campo,PT,37.7167,-25.4333,1643876687,58.19,84,44,8.97
388,pokhvistnevo,RU,53.6524,52.1274,1643876688,32.77,99,100,13.67
389,zhangye,CN,38.9342,100.4517,1643876689,31.59,25,7,10.38
390,khorixas,NA,-20.3667,14.9667,1643876689,72.75,38,0,2.3
391,muhos,FI,64.808,25.9931,1643876690,-7.82,99,92,2.28
392,krasnoborsk,RU,61.5598,45.934,1643876691,18.75,94,81,4.72
393,geraldton,AU,-28.7667,114.6,1643876692,106.21,11,0,14.97
394,port hardy,CA,50.6996,-127.4199,1643876692,40.75,93,100,12.66
395,khani,GE,41.9563,42.9566,1643876693,53.17,85,62,8.23
396,warmbad,NA,-28.45,18.7333,1643876694,72.32,57,0,6.82
397,hailar,CN,49.2,119.7,1643876695,-9.17,92,24,5.01
398,delcevo,MK,41.9672,22.7694,1643876695,30.99,85,51,4.85
399,arkansas city,US,37.062,-97.0384,1643876696,15.42,85,100,17.27
400,melita,CA,49.2681,-100.9967,1643876697,-27.45,100,33,5.37
401,piuma,BR,-20.8378,-40.7219,1643876698,73.2,94,100,5.01
402,saint-joseph,RE,-21.3667,55.6167,1643876698,79.16,95,100,32.55
403,tomatlan,MX,19.9333,-105.25,1643876699,58.55,85,0,3.13
404,alenquer,BR,-1.9417,-54.7383,1643876700,75.54,92,100,2.53
405,port hedland,AU,-20.3167,118.5667,1643876700,91.45,31,100,8.05
406,misawa,JP,40.6836,141.3597,1643876701,27.61,74,25,13.82
407,taltal,CL,-25.4,-70.4833,1643876702,64.6,81,9,0.83
408,mehamn,NO,71.0357,27.8492,1643876703,22.91,92,20,9.22
409,compostela,PH,7.6731,126.0889,1643876703,75.94,86,100,3.13
410,artyom,AZ,40.4723,50.333,1643876704,57.34,61,95,25.14
411,hasaki,JP,35.7333,140.8333,1643876705,48.6,39,41,3.47
412,tocopilla,CL,-22.092,-70.1979,1643876706,67.82,73,9,8.79
413,mantua,IT,45.1667,10.7833,1643876706,46.27,85,15,1.99
414,dalby,AU,-27.1833,151.2667,1643876707,71.98,91,100,1.99
415,blytheville,US,35.9273,-89.919,1643876655,32.05,86,100,24.0
416,fukue,JP,32.6881,128.8419,1643876708,43.16,56,75,14.97
417,dukat,RU,62.55,155.55,1643876709,-14.33,74,6,7.96
418,seoul,KR,37.5683,126.9778,1643876709,33.19,31,0,11.5
419,itainopolis,BR,-7.4469,-41.4783,1643876710,71.29,61,97,2.64
420,uturoa,PF,-16.7333,-151.4333,1643876711,80.92,77,15,20.4
421,gazli,UZ,40.1333,63.45,1643876711,51.67,37,0,9.86
422,eliot,US,43.1531,-70.8001,1643876712,40.95,95,100,3.44
423,kalmunai,LK,7.4167,81.8167,1643876713,82.92,59,4,6.26
424,ust-nera,RU,64.5667,143.2,1643876714,-12.24,100,100,4.27
425,itarema,BR,-2.9248,-39.9167,1643876714,76.06,89,99,7.61
426,manokwari,ID,-0.8667,134.0833,1643876715,81.28,76,50,3.56
427,zhigansk,RU,66.7697,123.3711,1643876716,-29.81,100,15,3.44
428,khorinsk,RU,52.1657,109.7726,1643876716,-1.61,87,30,1.57
429,san cristobal,VE,7.7669,-72.225,1643876717,63.45,69,44,1.72
430,beringovskiy,RU,63.05,179.3167,1643876718,7.25,73,96,20.58
431,rawson,AR,-43.3002,-65.1023,1643876719,68.81,49,3,12.82
432,kuching,MY,1.55,110.3333,1643876719,87.22,70,40,11.5
433,omboue,GA,-1.5746,9.2618,1643876720,77.79,85,100,5.01
434,tocache,PE,-8.1842,-76.5125,1643876721,68.41,94,100,0.38
435,pangoa,PE,-12.1167,-73.0,1643876722,66.43,99,100,2.55
436,danielskuil,ZA,-28.1887,23.5395,1643876722,70.39,75,66,10.89
437,sabha,LY,27.0377,14.4283,1643876723,48.61,42,3,14.03
438,qui nhon,VN,13.7667,109.2333,1643876724,76.21,81,30,14.16
439,rahon,IN,31.05,76.1167,1643876678,51.78,91,100,8.75
440,seagoville,US,32.6396,-96.5383,1643876633,32.14,98,100,20.89
441,yumen,CN,40.2833,97.2,1643876725,28.65,35,26,7.18
442,fort nelson,CA,58.8053,-122.7002,1643876725,-9.81,70,100,8.05
443,torres,BR,-29.3353,-49.7269,1643876726,73.83,96,17,6.96
444,ngunguru,NZ,-35.6167,174.5,1643876727,71.17,90,76,11.56
445,tiznit,MA,29.5833,-9.5,1643876728,61.54,29,9,8.61
446,tadine,NC,-21.55,167.8833,1643876728,79.57,85,63,8.84
447,tuatapere,NZ,-46.1333,167.6833,1643876729,55.81,67,100,7.78
448,greenville,US,35.6127,-77.3663,1643876729,50.29,95,75,0.0
449,bowen,AU,-20.0167,148.2333,1643876730,77.22,78,71,11.68
450,malaya serdoba,RU,52.4661,44.9512,1643876731,32.7,100,100,3.09
451,neepawa,CA,50.2289,-99.4664,1643876731,-30.6,82,0,7.38
452,skegness,GB,53.1436,0.3363,1643876732,46.69,91,99,13.51
453,solwezi,ZM,-12.1688,26.3894,1643876733,65.48,95,98,1.23
454,kos,GR,36.8933,27.2889,1643876733,56.64,67,78,7.11
455,leningradskiy,RU,69.3833,178.4167,1643876734,-13.83,88,17,9.22
456,adrar,MR,20.5022,-10.0711,1643876735,59.56,18,0,10.98
457,springbok,ZA,-29.6643,17.8865,1643876736,64.98,55,20,2.3
458,lagunas,PE,-5.2269,-75.6753,1643876736,71.24,94,95,1.43
459,ostrovnoy,RU,68.0531,39.5131,1643876737,19.96,87,100,13.76
460,wembley,AU,-31.9333,115.8,1643876738,104.2,13,0,12.66
461,quatre cocos,MU,-20.2078,57.7625,1643876738,80.1,91,100,23.67
462,san vicente,AR,-26.6167,-54.1333,1643876739,66.06,90,73,2.73
463,tartagal,AR,-22.5164,-63.8013,1643876441,69.13,98,100,4.36
464,namwala,ZM,-15.7504,26.4384,1643876740,77.02,73,75,5.93
465,dzilam gonzalez,MX,21.2833,-88.9333,1643876741,70.7,96,4,7.23
466,partizansk,RU,43.1258,133.1339,1643876741,12.79,60,54,8.05
467,dalbandin,PK,28.8947,64.4101,1643876742,56.32,21,0,1.68
468,belaya gora,RU,68.5333,146.4167,1643876743,-29.42,100,35,1.23
469,jieshi,CN,22.8134,115.8257,1643876744,54.95,81,99,9.04
470,adre,TD,13.4667,22.2,1643876744,73.6,14,0,8.95
471,cavalcante,BR,-13.7975,-47.4583,1643876745,67.8,88,100,2.42
472,kiknur,RU,57.3034,47.2011,1643876746,17.55,94,100,2.68
473,batagay,RU,67.6333,134.6333,1643876746,-32.8,98,94,0.96
474,nurota,UZ,40.5614,65.6886,1643876747,50.09,29,0,0.98
475,ambilobe,MG,-13.2,49.05,1643876748,84.7,69,100,8.34
476,dingzhou,CN,38.5131,114.9956,1643876749,41.11,33,6,4.88
477,noyabrsk,RU,63.1994,75.4507,1643876749,20.23,94,100,14.79
478,saint-leu,RE,-21.15,55.2833,1643876451,79.63,90,100,18.66
479,lata,PT,40.1629,-8.3327,1643876750,43.05,73,100,2.04
480,nyurba,RU,63.2842,118.3319,1643876751,-19.77,99,100,3.22
481,okhotsk,RU,59.3833,143.3,1643876751,13.73,77,100,13.18
482,puerto leguizamo,CO,-0.1934,-74.7819,1643876752,71.56,85,88,1.21
483,hirna,ET,9.2167,41.1,1643876753,70.43,30,99,7.56
484,broome,US,42.2506,-75.833,1643876754,41.2,76,100,1.01
485,la ronge,CA,55.1001,-105.2842,1643876569,-25.38,75,0,4.61
486,media luna,CU,20.1419,-77.435,1643876754,71.01,88,2,10.29
487,moroni,KM,-11.7022,43.2551,1643876755,84.2,84,75,10.36
488,vila velha,BR,-20.3297,-40.2925,1643876541,75.15,97,75,2.3
489,solnechnyy,RU,50.7214,136.6319,1643876756,-2.31,100,100,2.08
490,prachuap khiri khan,TH,12.2167,99.75,1643876552,82.71,43,53,11.34
491,kruisfontein,ZA,-34.0033,24.7314,1643876757,72.88,68,100,10.36
492,teya,RU,60.3778,92.6267,1643876492,16.83,89,99,8.97
493,elizabeth city,US,36.2946,-76.2511,1643876758,48.22,94,100,8.05
494,biritiba-mirim,BR,-23.5698,-46.0407,1643876758,68.34,97,100,2.19
495,kimbe,PG,-5.5502,150.1429,1643876759,75.65,94,100,4.14
496,porto novo,BJ,6.4965,2.6036,1643876760,75.02,68,73,3.11
497,baracoa,CU,20.3467,-74.4958,1643876760,73.4,89,94,12.41
498,seka,TH,17.9285,103.9552,1643876761,86.02,48,44,0.63
499,olecko,PL,54.0337,22.507,1643876762,21.97,92,70,5.99
500,boke,GN,10.9409,-14.2967,1643876763,70.34,94,55,1.83
501,bojnurd,IR,37.4747,57.329,1643876763,46.35,39,0,4.61
502,riberalta,BO,-10.9833,-66.1,1643876764,70.11,98,81,2.06
503,dhemaji,IN,27.4833,94.5833,1643876765,73.31,40,22,4.92
504,meru,KE,0.0463,37.6559,1643876766,71.85,59,100,4.99
505,hereford,GB,52.0568,-2.7148,1643876766,47.34,94,98,7.05
506,banjar,ID,-8.19,114.9675,1643876767,85.91,59,6,2.93
507,acarau,BR,-2.8856,-40.12,1643876768,76.28,89,90,7.58
508,quang ngai,VN,15.1167,108.8,1643876768,76.23,78,83,9.73
509,praia da vitoria,PT,38.7333,-27.0667,1643876769,57.45,88,40,8.32
510,iquique,CL,-20.2208,-70.1431,1643876758,64.44,78,15,4.36
511,kincardine,GB,56.0667,-3.7167,1643876770,48.56,90,100,15.17
512,sioux lookout,CA,50.1001,-91.917,1643876771,-21.62,83,0,2.3
513,norden,DE,53.6,7.2,1643876771,46.94,96,100,16.44
514,santa cruz del sur,CU,20.7147,-77.9956,1643876772,71.91,86,1,12.73
515,srednekolymsk,RU,67.45,153.6833,1643876773,-31.76,100,98,2.04
516,khuldabad,IN,20.05,75.1833,1643876773,81.64,17,16,16.35
517,dubbo,AU,-32.25,148.6167,1643876774,77.13,36,0,13.8
518,zhanaozen,KZ,43.3,52.8,1643876775,49.95,39,29,25.57
519,bereda,ES,43.2686,-7.5406,1643876775,47.95,97,99,2.17
520,bara,NG,10.3744,10.7288,1643876776,72.72,12,52,11.95
521,margate,GB,51.3813,1.3862,1643876777,46.96,85,100,4.0
522,pemba,MZ,-12.974,40.5178,1643876778,88.5,66,20,5.75
523,belyy yar,RU,53.6039,91.3903,1643876778,-2.31,71,74,4.47
524,kirillov,RU,59.863,38.3813,1643876779,21.13,95,95,3.94
525,vanavara,RU,60.34,102.2797,1643876780,11.8,94,100,4.41
526,wilmington,US,34.2257,-77.9447,1643876780,56.86,89,75,4.61
527,opuwo,NA,-18.0607,13.84,1643876781,75.7,33,20,2.98
528,sokolo,ML,14.7328,-6.1219,1643876782,65.46,17,19,10.96
529,kon tum,VN,14.35,108.0,1643876783,87.49,38,79,6.31
530,buckeye,US,33.3703,-112.5838,1643876679,50.83,14,0,11.5
531,leh,IN,34.1667,77.5833,1643876783,17.33,86,100,1.92
532,luban,PL,51.1201,15.2877,1643876784,39.04,82,100,7.61
533,shumskiy,RU,54.8318,99.1328,1643876785,13.8,86,99,1.21
534,takoradi,GH,4.8845,-1.7554,1643876786,80.4,73,7,3.69
535,bella union,UY,-30.2752,-57.6007,1643876786,77.02,37,7,7.81
536,kailua,US,21.4022,-157.7394,1643876544,73.74,76,75,9.22
537,myitkyina,MM,25.3833,97.4,1643876787,75.56,35,13,1.28
538,botwood,CA,49.1499,-55.3482,1643876788,28.9,83,96,13.76
539,lochem,NL,52.1592,6.4111,1643876788,47.32,88,100,14.79
540,karasburg,NA,-28.0167,18.75,1643876789,70.2,57,0,4.05
541,inhambane,MZ,-23.865,35.3833,1643876790,89.58,62,20,4.61
542,ures,MX,29.4333,-110.4,1643876791,48.7,16,0,3.58
543,port-cartier,CA,50.0334,-66.8654,1643876505,30.42,97,100,10.16
544,nelson bay,AU,-32.7167,152.15,1643876791,69.96,89,72,4.0
545,parana,AR,-31.732,-60.5238,1643876792,74.57,80,95,9.24
546,college,US,64.8569,-147.8028,1643876793,-6.14,68,0,4.61
547,saint-augustin,CA,51.226,-58.6502,1643876794,30.0,96,100,18.92
548,bouar,CF,5.934,15.596,1643876794,79.11,15,6,9.22
549,tres arroyos,AR,-38.3739,-60.2798,1643876795,65.37,86,100,4.85
550,sibolga,ID,1.7427,98.7792,1643876796,82.17,79,81,2.91
551,ozinki,RU,51.1786,49.6769,1643876796,32.14,95,100,17.36
552,flin flon,CA,54.7682,-101.865,1643876797,-22.14,89,15,8.08
553,juegang,CN,32.3174,121.1855,1643876798,46.9,54,100,9.64
554,manadhoo,MV,5.7667,73.3833,1643876799,81.48,70,18,4.5
555,piro,IN,25.3333,84.4167,1643876799,76.82,39,2,11.3
556,palimbang,PH,6.2106,124.1894,1643876800,79.52,80,100,3.6
557,muzhi,RU,65.3667,64.6667,1643876801,-7.73,97,34,3.06
558,dhankuta,NP,26.9833,87.3333,1643876801,57.38,47,87,5.37
559,fort-shevchenko,KZ,44.5086,50.263,1643876802,48.54,50,8,25.46
560,shelburne,CA,44.0787,-80.2041,1643876803,23.18,94,100,13.13
561,tambilil,PH,5.9622,124.6697,1643876804,80.17,77,100,3.53
562,san buenaventura,MX,27.0833,-101.5333,1643876804,48.47,61,100,7.09
563,caririacu,BR,-7.0422,-39.2836,1643876805,69.89,88,20,0.0
564,katsuura,JP,35.1333,140.3,1643876697,50.18,44,84,2.13
565,puerto del rosario,ES,28.5004,-13.8627,1643876806,67.68,55,0,3.44
566,ust-omchug,RU,61.15,149.6333,1643876806,-11.87,99,100,7.49
567,hamilton,US,39.1834,-84.5333,1643876617,35.64,95,100,4.0
568,byron bay,AU,-28.65,153.6167,1643876807,71.55,92,100,18.68
569,point pedro,LK,9.8167,80.2333,1643876808,80.1,57,21,4.32
570,thabazimbi,ZA,-24.5917,27.4116,1643876809,83.21,42,29,7.07
571,goderich,CA,43.7501,-81.7165,1643876810,24.91,86,100,8.05
572,atambua,ID,-9.1061,124.8925,1643876810,77.29,83,91,7.05
573,evensk,RU,61.95,159.2333,1643876811,21.2,37,4,29.59
574,murray,US,40.6669,-111.888,1643876812,21.81,64,0,8.99
575,dhone,IN,15.4167,77.8833,1643876812,88.05,30,6,7.83
576,namatanai,PG,-3.6667,152.4333,1643876813,77.76,86,100,11.03
577,nara,JP,34.6851,135.8049,1643876814,45.77,46,100,11.34
578,wahiawa,US,21.5028,-158.0236,1643876815,70.47,77,0,4.21
579,uusikaupunki,FI,60.8004,21.4084,1643876815,9.12,93,73,1.59
